[{"id":"p4","title":"Caribbean Beach","image":{"src":"caribbean-beach.jpg","alt":"Pristine white sand and turquoise waters of a Caribbean beach."},"lat":18.2208,"lon":-66.5901},{"id":"p4","title":"Caribbean Beach","image":{"src":"caribbean-beach.jpg","alt":"Pristine white sand and turquoise waters of a Caribbean beach."},"lat":18.2208,"lon":-66.5901},{"id":"p12","title":"Venetian Canals","image":{"src":"venetian-canals.jpg","alt":"Glistening waters of the Venetian canals as gondolas glide by at sunset."},"lat":45.4408,"lon":12.3155},{"id":"p9","title":"Great Barrier Reef","image":{"src":"great-barrier-reef.jpg","alt":"Vibrant coral formations of the Great Barrier Reef underwater."},"lat":-18.2871,"lon":147.6992},{"id":"p5","title":"Ancient Grecian Ruins","image":{"src":"ruins.jpg","alt":"Historic ruins standing tall against the backdrop of the Grecian sky."},"lat":37.9715,"lon":23.7257},{"id":"p10","title":"Parisian Streets","image":{"src":"parisian-streets.jpg","alt":"Charming streets of Paris with historic buildings and cafes."},"lat":48.8566,"lon":2.3522},{"id":"p16","title":"Victoria Falls","image":{"src":"victoria-falls.jpg","alt":"The powerful cascade of Victoria Falls, a natural wonder between Zambia and Zimbabwe."},"lat":-17.9243,"lon":25.8572},{"id":"p3","title":"Himalayan Peaks","image":{"src":"majestic-mountains.jpg","alt":"The sun setting behind snow-capped peaks of majestic mountains."},"lat":27.9881,"lon":86.925},{"id":"p13","title":"Taj Mahal","image":{"src":"taj-mahal.jpg","alt":"The iconic Taj Mahal reflecting in its surrounding waters during sunrise."},"lat":27.1751,"lon":78.0421},{"id":"p14","title":"Kerala Backwaters","image":{"src":"kerala-backwaters.jpg","alt":"Tranquil waters and lush greenery of the Kerala backwaters."},"lat":9.4981,"lon":76.3388}]